[{"page":1,"pages":1,"per_page":"500","total":74},[{"id":"ABW","iso2Code":"AW","name":"Aruba","region":{"id":"LCN","value":"Latin America & Caribbean (all income levels)"},"adminregion":{"id":"","value":""},"incomeLevel":{"id":"NOC","value":"High income: nonOECD"},"lendingType":{"id":"LNX","value":"Not classified"},"capitalCity":"Oranjestad","longitude":"-70.0167","latitude":"12.5167"},{"id":"AND","iso2Code":"AD","name":"Andorra","region":{"id":"ECS","value":"Europe & Central Asia (all income levels)"},"adminregion":{"id":"","value":""},"incomeLevel":{"id":"NOC","value":"High income: nonOECD"},"lendingType":{"id":"LNX","value":"Not classified"},"capitalCity":"Andorra la Vella","longitude":"1.5218","latitude":"42.5075"},{"id":"ARE","iso2Code":"AE","name":"United Arab Emirates","region":{"id":"MEA","value":"Middle East & North Africa (all income levels)"},"adminregion":{"id":"","value":""},"incomeLevel":{"id":"NOC","value":"High income: nonOECD"},"lendingType":{"id":"LNX","value":"Not classified"},"capitalCity":"Abu Dhabi","longitude":"54.3705","latitude":"24.4764"},{"id":"ATG","iso2Code":"AG","name":"Antigua and Barbuda","region":{"id":"LCN","value":"Latin America & Caribbean (all income levels)"},"adminregion":{"id":"","value":""},"incomeLevel":{"id":"NOC","value":"High income: nonOECD"},"lendingType":{"id":"IBD","value":"IBRD"},"capitalCity":"Saint John's","longitude":"-61.8456","latitude":"17.1175"},{"id":"AUS","iso2Code":"AU","name":"Australia","region":{"id":"EAS","value":"East Asia & Pacific (all income levels)"},"adminregion":{"id":"","value":""},"incomeLevel":{"id":"OEC","value":"High income: OECD"},"lendingType":{"id":"LNX","value":"Not classified"},"capitalCity":"Canberra","longitude":"149.129","latitude":"-35.282"},{"id":"AUT","iso2Code":"AT","name":"Austria","region":{"id":"ECS","value":"Europe & Central Asia (all income levels)"},"adminregion":{"id":"","value":""},"incomeLevel":{"id":"OEC","value":"High income: OECD"},"lendingType":{"id":"LNX","value":"Not classified"},"capitalCity":"Vienna","longitude":"16.3798","latitude":"48.2201"},{"id":"BEL","iso2Code":"BE","name":"Belgium","region":{"id":"ECS","value":"Europe & Central Asia (all income levels)"},"adminregion":{"id":"","value":""},"incomeLevel":{"id":"OEC","value":"High income: OECD"},"lendingType":{"id":"LNX","value":"Not classified"},"capitalCity":"Brussels","longitude":"4.36761","latitude":"50.8371"},{"id":"BHR","iso2Code":"BH","name":"Bahrain","region":{"id":"MEA","value":"Middle East & North Africa (all income levels)"},"adminregion":{"id":"","value":""},"incomeLevel":{"id":"NOC","value":"High income: nonOECD"},"lendingType":{"id":"LNX","value":"Not classified"},"capitalCity":"Manama","longitude":"50.5354","latitude":"26.1921"},{"id":"BHS","iso2Code":"BS","name":"Bahamas, The","region":{"id":"LCN","value":"Latin America & Caribbean (all income levels)"},"adminregion":{"id":"","value":""},"incomeLevel":{"id":"NOC","value":"High income: nonOECD"},"lendingType":{"id":"LNX","value":"Not classified"},"capitalCity":"Nassau","longitude":"-77.339","latitude":"25.0661"},{"id":"BMU","iso2Code":"BM","name":"Bermuda","region":{"id":"NAC","value":"North America"},"adminregion":{"id":"","value":""},"incomeLevel":{"id":"NOC","value":"High income: nonOECD"},"lendingType":{"id":"LNX","value":"Not classified"},"capitalCity":"Hamilton","longitude":"-64.706","latitude":"32.3293"},{"id":"BRB","iso2Code":"BB","name":"Barbados","region":{"id":"LCN","value":"Latin America & Caribbean (all income levels)"},"adminregion":{"id":"","value":""},"incomeLevel":{"id":"NOC","value":"High income: nonOECD"},"lendingType":{"id":"LNX","value":"Not classified"},"capitalCity":"Bridgetown","longitude":"-59.6105","latitude":"13.0935"},{"id":"BRN","iso2Code":"BN","name":"Brunei Darussalam","region":{"id":"EAS","value":"East Asia & Pacific (all income levels)"},"adminregion":{"id":"","value":""},"incomeLevel":{"id":"NOC","value":"High income: nonOECD"},"lendingType":{"id":"LNX","value":"Not classified"},"capitalCity":"Bandar Seri Begawan","longitude":"114.946","latitude":"4.94199"},{"id":"CAN","iso2Code":"CA","name":"Canada","region":{"id":"NAC","value":"North America"},"adminregion":{"id":"","value":""},"incomeLevel":{"id":"OEC","value":"High income: OECD"},"lendingType":{"id":"LNX","value":"Not classified"},"capitalCity":"Ottawa","longitude":"-75.6919","latitude":"45.4215"},{"id":"CHE","iso2Code":"CH","name":"Switzerland","region":{"id":"ECS","value":"Europe & Central Asia (all income levels)"},"adminregion":{"id":"","value":""},"incomeLevel":{"id":"OEC","value":"High income: OECD"},"lendingType":{"id":"LNX","value":"Not classified"},"capitalCity":"Bern","longitude":"7.44821","latitude":"46.948"},{"id":"CHI","iso2Code":"JG","name":"Channel Islands","region":{"id":"ECS","value":"Europe & Central Asia (all income levels)"},"adminregion":{"id":"","value":""},"incomeLevel":{"id":"NOC","value":"High income: nonOECD"},"lendingType":{"id":"LNX","value":"Not classified"},"capitalCity":"","longitude":"","latitude":""},{"id":"CHL","iso2Code":"CL","name":"Chile","region":{"id":"LCN","value":"Latin America & Caribbean (all income levels)"},"adminregion":{"id":"","value":""},"incomeLevel":{"id":"OEC","value":"High income: OECD"},"lendingType":{"id":"IBD","value":"IBRD"},"capitalCity":"Santiago","longitude":"-70.6475","latitude":"-33.475"},{"id":"CUW","iso2Code":"CW","name":"Curacao","region":{"id":"LCN","value":"Latin America & Caribbean (all income levels)"},"adminregion":{"id":"","value":""},"incomeLevel":{"id":"NOC","value":"High income: nonOECD"},"lendingType":{"id":"LNX","value":"Not classified"},"capitalCity":"Willemstad","longitude":"","latitude":""},{"id":"CYM","iso2Code":"KY","name":"Cayman Islands","region":{"id":"LCN","value":"Latin America & Caribbean (all income levels)"},"adminregion":{"id":"","value":""},"incomeLevel":{"id":"NOC","value":"High income: nonOECD"},"lendingType":{"id":"LNX","value":"Not classified"},"capitalCity":"George Town","longitude":"-81.3857","latitude":"19.3022"},{"id":"CYP","iso2Code":"CY","name":"Cyprus","region":{"id":"ECS","value":"Europe & Central Asia (all income levels)"},"adminregion":{"id":"","value":""},"incomeLevel":{"id":"NOC","value":"High income: nonOECD"},"lendingType":{"id":"LNX","value":"Not classified"},"capitalCity":"Nicosia","longitude":"33.3736","latitude":"35.1676"},{"id":"CZE","iso2Code":"CZ","name":"Czech Republic","region":{"id":"ECS","value":"Europe & Central Asia (all income levels)"},"adminregion":{"id":"","value":""},"incomeLevel":{"id":"OEC","value":"High income: OECD"},"lendingType":{"id":"LNX","value":"Not classified"},"capitalCity":"Prague","longitude":"14.4205","latitude":"50.0878"},{"id":"DEU","iso2Code":"DE","name":"Germany","region":{"id":"ECS","value":"Europe & Central Asia (all income levels)"},"adminregion":{"id":"","value":""},"incomeLevel":{"id":"OEC","value":"High income: OECD"},"lendingType":{"id":"LNX","value":"Not classified"},"capitalCity":"Berlin","longitude":"13.4115","latitude":"52.5235"},{"id":"DNK","iso2Code":"DK","name":"Denmark","region":{"id":"ECS","value":"Europe & Central Asia (all income levels)"},"adminregion":{"id":"","value":""},"incomeLevel":{"id":"OEC","value":"High income: OECD"},"lendingType":{"id":"LNX","value":"Not classified"},"capitalCity":"Copenhagen","longitude":"12.5681","latitude":"55.6763"},{"id":"ESP","iso2Code":"ES","name":"Spain","region":{"id":"ECS","value":"Europe & Central Asia (all income levels)"},"adminregion":{"id":"","value":""},"incomeLevel":{"id":"OEC","value":"High income: OECD"},"lendingType":{"id":"LNX","value":"Not classified"},"capitalCity":"Madrid","longitude":"-3.70327","latitude":"40.4167"},{"id":"EST","iso2Code":"EE","name":"Estonia","region":{"id":"ECS","value":"Europe & Central Asia (all income levels)"},"adminregion":{"id":"","value":""},"incomeLevel":{"id":"OEC","value":"High income: OECD"},"lendingType":{"id":"LNX","value":"Not classified"},"capitalCity":"Tallinn","longitude":"24.7586","latitude":"59.4392"},{"id":"FIN","iso2Code":"FI","name":"Finland","region":{"id":"ECS","value":"Europe & Central Asia (all income levels)"},"adminregion":{"id":"","value":""},"incomeLevel":{"id":"OEC","value":"High income: OECD"},"lendingType":{"id":"LNX","value":"Not classified"},"capitalCity":"Helsinki","longitude":"24.9525","latitude":"60.1608"},{"id":"FRA","iso2Code":"FR","name":"France","region":{"id":"ECS","value":"Europe & Central Asia (all income levels)"},"adminregion":{"id":"","value":""},"incomeLevel":{"id":"OEC","value":"High income: OECD"},"lendingType":{"id":"LNX","value":"Not classified"},"capitalCity":"Paris","longitude":"2.35097","latitude":"48.8566"},{"id":"FRO","iso2Code":"FO","name":"Faeroe Islands","region":{"id":"ECS","value":"Europe & Central Asia (all income levels)"},"adminregion":{"id":"","value":""},"incomeLevel":{"id":"NOC","value":"High income: nonOECD"},"lendingType":{"id":"LNX","value":"Not classified"},"capitalCity":"Torshavn","longitude":"-6.91181","latitude":"61.8926"},{"id":"GBR","iso2Code":"GB","name":"United Kingdom","region":{"id":"ECS","value":"Europe & Central Asia (all income levels)"},"adminregion":{"id":"","value":""},"incomeLevel":{"id":"OEC","value":"High income: OECD"},"lendingType":{"id":"LNX","value":"Not classified"},"capitalCity":"London","longitude":"-0.126236","latitude":"51.5002"},{"id":"GNQ","iso2Code":"GQ","name":"Equatorial Guinea","region":{"id":"SSF","value":"Sub-Saharan Africa (all income levels)"},"adminregion":{"id":"","value":""},"incomeLevel":{"id":"NOC","value":"High income: nonOECD"},"lendingType":{"id":"IBD","value":"IBRD"},"capitalCity":"Malabo","longitude":"8.7741","latitude":"3.7523"},{"id":"GRC","iso2Code":"GR","name":"Greece","region":{"id":"ECS","value":"Europe & Central Asia (all income levels)"},"adminregion":{"id":"","value":""},"incomeLevel":{"id":"OEC","value":"High income: OECD"},"lendingType":{"id":"LNX","value":"Not classified"},"capitalCity":"Athens","longitude":"23.7166","latitude":"37.9792"},{"id":"GRL","iso2Code":"GL","name":"Greenland","region":{"id":"ECS","value":"Europe & Central Asia (all income levels)"},"adminregion":{"id":"","value":""},"incomeLevel":{"id":"NOC","value":"High income: nonOECD"},"lendingType":{"id":"LNX","value":"Not classified"},"capitalCity":"Nuuk","longitude":"-51.7214","latitude":"64.1836"},{"id":"GUM","iso2Code":"GU","name":"Guam","region":{"id":"EAS","value":"East Asia & Pacific (all income levels)"},"adminregion":{"id":"","value":""},"incomeLevel":{"id":"NOC","value":"High income: nonOECD"},"lendingType":{"id":"LNX","value":"Not classified"},"capitalCity":"Agana","longitude":"144.794","latitude":"13.4443"},{"id":"HKG","iso2Code":"HK","name":"Hong Kong SAR, China","region":{"id":"EAS","value":"East Asia & Pacific (all income levels)"},"adminregion":{"id":"","value":""},"incomeLevel":{"id":"NOC","value":"High income: nonOECD"},"lendingType":{"id":"LNX","value":"Not classified"},"capitalCity":"","longitude":"114.109","latitude":"22.3964"},{"id":"HRV","iso2Code":"HR","name":"Croatia","region":{"id":"ECS","value":"Europe & Central Asia (all income levels)"},"adminregion":{"id":"","value":""},"incomeLevel":{"id":"NOC","value":"High income: nonOECD"},"lendingType":{"id":"IBD","value":"IBRD"},"capitalCity":"Zagreb","longitude":"15.9614","latitude":"45.8069"},{"id":"IMN","iso2Code":"IM","name":"Isle of Man","region":{"id":"ECS","value":"Europe & Central Asia (all income levels)"},"adminregion":{"id":"","value":""},"incomeLevel":{"id":"NOC","value":"High income: nonOECD"},"lendingType":{"id":"LNX","value":"Not classified"},"capitalCity":"Douglas","longitude":"-4.47928","latitude":"54.1509"},{"id":"IRL","iso2Code":"IE","name":"Ireland","region":{"id":"ECS","value":"Europe & Central Asia (all income levels)"},"adminregion":{"id":"","value":""},"incomeLevel":{"id":"OEC","value":"High income: OECD"},"lendingType":{"id":"LNX","value":"Not classified"},"capitalCity":"Dublin","longitude":"-6.26749","latitude":"53.3441"},{"id":"ISL","iso2Code":"IS","name":"Iceland","region":{"id":"ECS","value":"Europe & Central Asia (all income levels)"},"adminregion":{"id":"","value":""},"incomeLevel":{"id":"OEC","value":"High income: OECD"},"lendingType":{"id":"LNX","value":"Not classified"},"capitalCity":"Reykjavik","longitude":"-21.8952","latitude":"64.1353"},{"id":"ISR","iso2Code":"IL","name":"Israel","region":{"id":"MEA","value":"Middle East & North Africa (all income levels)"},"adminregion":{"id":"","value":""},"incomeLevel":{"id":"OEC","value":"High income: OECD"},"lendingType":{"id":"LNX","value":"Not classified"},"capitalCity":"","longitude":"35.2035","latitude":"31.7717"},{"id":"ITA","iso2Code":"IT","name":"Italy","region":{"id":"ECS","value":"Europe & Central Asia (all income levels)"},"adminregion":{"id":"","value":""},"incomeLevel":{"id":"OEC","value":"High income: OECD"},"lendingType":{"id":"LNX","value":"Not classified"},"capitalCity":"Rome","longitude":"12.4823","latitude":"41.8955"},{"id":"JPN","iso2Code":"JP","name":"Japan","region":{"id":"EAS","value":"East Asia & Pacific (all income levels)"},"adminregion":{"id":"","value":""},"incomeLevel":{"id":"OEC","value":"High income: OECD"},"lendingType":{"id":"LNX","value":"Not classified"},"capitalCity":"Tokyo","longitude":"139.77","latitude":"35.67"},{"id":"KOR","iso2Code":"KR","name":"Korea, Rep.","region":{"id":"EAS","value":"East Asia & Pacific (all income levels)"},"adminregion":{"id":"","value":""},"incomeLevel":{"id":"OEC","value":"High income: OECD"},"lendingType":{"id":"IBD","value":"IBRD"},"capitalCity":"Seoul","longitude":"126.957","latitude":"37.5323"},{"id":"KWT","iso2Code":"KW","name":"Kuwait","region":{"id":"MEA","value":"Middle East & North Africa (all income levels)"},"adminregion":{"id":"","value":""},"incomeLevel":{"id":"NOC","value":"High income: nonOECD"},"lendingType":{"id":"LNX","value":"Not classified"},"capitalCity":"Kuwait City","longitude":"47.9824","latitude":"29.3721"},{"id":"LIE","iso2Code":"LI","name":"Liechtenstein","region":{"id":"ECS","value":"Europe & Central Asia (all income levels)"},"adminregion":{"id":"","value":""},"incomeLevel":{"id":"NOC","value":"High income: nonOECD"},"lendingType":{"id":"LNX","value":"Not classified"},"capitalCity":"Vaduz","longitude":"9.52148","latitude":"47.1411"},{"id":"LTU","iso2Code":"LT","name":"Lithuania","region":{"id":"ECS","value":"Europe & Central Asia (all income levels)"},"adminregion":{"id":"","value":""},"incomeLevel":{"id":"NOC","value":"High income: nonOECD"},"lendingType":{"id":"LNX","value":"Not classified"},"capitalCity":"Vilnius","longitude":"25.2799","latitude":"54.6896"},{"id":"LUX","iso2Code":"LU","name":"Luxembourg","region":{"id":"ECS","value":"Europe & Central Asia (all income levels)"},"adminregion":{"id":"","value":""},"incomeLevel":{"id":"OEC","value":"High income: OECD"},"lendingType":{"id":"LNX","value":"Not classified"},"capitalCity":"Luxembourg","longitude":"6.1296","latitude":"49.61"},{"id":"LVA","iso2Code":"LV","name":"Latvia","region":{"id":"ECS","value":"Europe & Central Asia (all income levels)"},"adminregion":{"id":"","value":""},"incomeLevel":{"id":"NOC","value":"High income: nonOECD"},"lendingType":{"id":"LNX","value":"Not classified"},"capitalCity":"Riga","longitude":"24.1048","latitude":"56.9465"},{"id":"MAC","iso2Code":"MO","name":"Macao SAR, China","region":{"id":"EAS","value":"East Asia & Pacific (all income levels)"},"adminregion":{"id":"","value":""},"incomeLevel":{"id":"NOC","value":"High income: nonOECD"},"lendingType":{"id":"LNX","value":"Not classified"},"capitalCity":"","longitude":"113.55","latitude":"22.1667"},{"id":"MAF","iso2Code":"MF","name":"St. Martin (French part)","region":{"id":"LCN","value":"Latin America & Caribbean (all income levels)"},"adminregion":{"id":"","value":""},"incomeLevel":{"id":"NOC","value":"High income: nonOECD"},"lendingType":{"id":"LNX","value":"Not classified"},"capitalCity":"Marigot","longitude":"","latitude":""},{"id":"MCO","iso2Code":"MC","name":"Monaco","region":{"id":"ECS","value":"Europe & Central Asia (all income levels)"},"adminregion":{"id":"","value":""},"incomeLevel":{"id":"NOC","value":"High income: nonOECD"},"lendingType":{"id":"LNX","value":"Not classified"},"capitalCity":"Monaco","longitude":"7.41891","latitude":"43.7325"},{"id":"MLT","iso2Code":"MT","name":"Malta","region":{"id":"MEA","value":"Middle East & North Africa (all income levels)"},"adminregion":{"id":"","value":""},"incomeLevel":{"id":"NOC","value":"High income: nonOECD"},"lendingType":{"id":"LNX","value":"Not classified"},"capitalCity":"Valletta","longitude":"14.5189","latitude":"35.9042"},{"id":"MNP","iso2Code":"MP","name":"Northern Mariana Islands","region":{"id":"EAS","value":"East Asia & Pacific (all income levels)"},"adminregion":{"id":"","value":""},"incomeLevel":{"id":"NOC","value":"High income: nonOECD"},"lendingType":{"id":"LNX","value":"Not classified"},"capitalCity":"Saipan","longitude":"145.765","latitude":"15.1935"},{"id":"NCL","iso2Code":"NC","name":"New Caledonia","region":{"id":"EAS","value":"East Asia & Pacific (all income levels)"},"adminregion":{"id":"","value":""},"incomeLevel":{"id":"NOC","value":"High income: nonOECD"},"lendingType":{"id":"LNX","value":"Not classified"},"capitalCity":"Noum'ea","longitude":"166.464","latitude":"-22.2677"},{"id":"NLD","iso2Code":"NL","name":"Netherlands","region":{"id":"ECS","value":"Europe & Central Asia (all income levels)"},"adminregion":{"id":"","value":""},"incomeLevel":{"id":"OEC","value":"High income: OECD"},"lendingType":{"id":"LNX","value":"Not classified"},"capitalCity":"Amsterdam","longitude":"4.89095","latitude":"52.3738"},{"id":"NOR","iso2Code":"NO","name":"Norway","region":{"id":"ECS","value":"Europe & Central Asia (all income levels)"},"adminregion":{"id":"","value":""},"incomeLevel":{"id":"OEC","value":"High income: OECD"},"lendingType":{"id":"LNX","value":"Not classified"},"capitalCity":"Oslo","longitude":"10.7387","latitude":"59.9138"},{"id":"NZL","iso2Code":"NZ","name":"New Zealand","region":{"id":"EAS","value":"East Asia & Pacific (all income levels)"},"adminregion":{"id":"","value":""},"incomeLevel":{"id":"OEC","value":"High income: OECD"},"lendingType":{"id":"LNX","value":"Not classified"},"capitalCity":"Wellington","longitude":"174.776","latitude":"-41.2865"},{"id":"OMN","iso2Code":"OM","name":"Oman","region":{"id":"MEA","value":"Middle East & North Africa (all income levels)"},"adminregion":{"id":"","value":""},"incomeLevel":{"id":"NOC","value":"High income: nonOECD"},"lendingType":{"id":"LNX","value":"Not classified"},"capitalCity":"Muscat","longitude":"58.5874","latitude":"23.6105"},{"id":"POL","iso2Code":"PL","name":"Poland","region":{"id":"ECS","value":"Europe & Central Asia (all income levels)"},"adminregion":{"id":"","value":""},"incomeLevel":{"id":"OEC","value":"High income: OECD"},"lendingType":{"id":"IBD","value":"IBRD"},"capitalCity":"Warsaw","longitude":"21.02","latitude":"52.26"},{"id":"PRI","iso2Code":"PR","name":"Puerto Rico","region":{"id":"LCN","value":"Latin America & Caribbean (all income levels)"},"adminregion":{"id":"","value":""},"incomeLevel":{"id":"NOC","value":"High income: nonOECD"},"lendingType":{"id":"LNX","value":"Not classified"},"capitalCity":"San Juan","longitude":"-66","latitude":"18.23"},{"id":"PRT","iso2Code":"PT","name":"Portugal","region":{"id":"ECS","value":"Europe & Central Asia (all income levels)"},"adminregion":{"id":"","value":""},"incomeLevel":{"id":"OEC","value":"High income: OECD"},"lendingType":{"id":"LNX","value":"Not classified"},"capitalCity":"Lisbon","longitude":"-9.13552","latitude":"38.7072"},{"id":"PYF","iso2Code":"PF","name":"French Polynesia","region":{"id":"EAS","value":"East Asia & Pacific (all income levels)"},"adminregion":{"id":"","value":""},"incomeLevel":{"id":"NOC","value":"High income: nonOECD"},"lendingType":{"id":"LNX","value":"Not classified"},"capitalCity":"Papeete","longitude":"-149.57","latitude":"-17.535"},{"id":"QAT","iso2Code":"QA","name":"Qatar","region":{"id":"MEA","value":"Middle East & North Africa (all income levels)"},"adminregion":{"id":"","value":""},"incomeLevel":{"id":"NOC","value":"High income: nonOECD"},"lendingType":{"id":"LNX","value":"Not classified"},"capitalCity":"Doha","longitude":"51.5082","latitude":"25.2948"},{"id":"RUS","iso2Code":"RU","name":"Russian Federation","region":{"id":"ECS","value":"Europe & Central Asia (all income levels)"},"adminregion":{"id":"","value":""},"incomeLevel":{"id":"NOC","value":"High income: nonOECD"},"lendingType":{"id":"IBD","value":"IBRD"},"capitalCity":"Moscow","longitude":"37.6176","latitude":"55.7558"},{"id":"SAU","iso2Code":"SA","name":"Saudi Arabia","region":{"id":"MEA","value":"Middle East & North Africa (all income levels)"},"adminregion":{"id":"","value":""},"incomeLevel":{"id":"NOC","value":"High income: nonOECD"},"lendingType":{"id":"LNX","value":"Not classified"},"capitalCity":"Riyadh","longitude":"46.6977","latitude":"24.6748"},{"id":"SGP","iso2Code":"SG","name":"Singapore","region":{"id":"EAS","value":"East Asia & Pacific (all income levels)"},"adminregion":{"id":"","value":""},"incomeLevel":{"id":"NOC","value":"High income: nonOECD"},"lendingType":{"id":"LNX","value":"Not classified"},"capitalCity":"Singapore","longitude":"103.85","latitude":"1.28941"},{"id":"SMR","iso2Code":"SM","name":"San Marino","region":{"id":"ECS","value":"Europe & Central Asia (all income levels)"},"adminregion":{"id":"","value":""},"incomeLevel":{"id":"NOC","value":"High income: nonOECD"},"lendingType":{"id":"LNX","value":"Not classified"},"capitalCity":"San Marino","longitude":"12.4486","latitude":"43.9322"},{"id":"SVK","iso2Code":"SK","name":"Slovak Republic","region":{"id":"ECS","value":"Europe & Central Asia (all income levels)"},"adminregion":{"id":"","value":""},"incomeLevel":{"id":"OEC","value":"High income: OECD"},"lendingType":{"id":"LNX","value":"Not classified"},"capitalCity":"Bratislava","longitude":"17.1073","latitude":"48.1484"},{"id":"SVN","iso2Code":"SI","name":"Slovenia","region":{"id":"ECS","value":"Europe & Central Asia (all income levels)"},"adminregion":{"id":"","value":""},"incomeLevel":{"id":"OEC","value":"High income: OECD"},"lendingType":{"id":"LNX","value":"Not classified"},"capitalCity":"Ljubljana","longitude":"14.5044","latitude":"46.0546"},{"id":"SWE","iso2Code":"SE","name":"Sweden","region":{"id":"ECS","value":"Europe & Central Asia (all income levels)"},"adminregion":{"id":"","value":""},"incomeLevel":{"id":"OEC","value":"High income: OECD"},"lendingType":{"id":"LNX","value":"Not classified"},"capitalCity":"Stockholm","longitude":"18.0645","latitude":"59.3327"},{"id":"SXM","iso2Code":"SX","name":"Sint Maarten (Dutch part)","region":{"id":"LCN","value":"Latin America & Caribbean (all income levels)"},"adminregion":{"id":"","value":""},"incomeLevel":{"id":"NOC","value":"High income: nonOECD"},"lendingType":{"id":"LNX","value":"Not classified"},"capitalCity":"Philipsburg","longitude":"","latitude":""},{"id":"TCA","iso2Code":"TC","name":"Turks and Caicos Islands","region":{"id":"LCN","value":"Latin America & Caribbean (all income levels)"},"adminregion":{"id":"","value":""},"incomeLevel":{"id":"NOC","value":"High income: nonOECD"},"lendingType":{"id":"LNX","value":"Not classified"},"capitalCity":"Grand Turk","longitude":"-71.141389","latitude":"21.4602778"},{"id":"TTO","iso2Code":"TT","name":"Trinidad and Tobago","region":{"id":"LCN","value":"Latin America & Caribbean (all income levels)"},"adminregion":{"id":"","value":""},"incomeLevel":{"id":"NOC","value":"High income: nonOECD"},"lendingType":{"id":"IBD","value":"IBRD"},"capitalCity":"Port-of-Spain","longitude":"-61.4789","latitude":"10.6596"},{"id":"URY","iso2Code":"UY","name":"Uruguay","region":{"id":"LCN","value":"Latin America & Caribbean (all income levels)"},"adminregion":{"id":"","value":""},"incomeLevel":{"id":"NOC","value":"High income: nonOECD"},"lendingType":{"id":"IBD","value":"IBRD"},"capitalCity":"Montevideo","longitude":"-56.0675","latitude":"-34.8941"},{"id":"USA","iso2Code":"US","name":"United States","region":{"id":"NAC","value":"North America"},"adminregion":{"id":"","value":""},"incomeLevel":{"id":"OEC","value":"High income: OECD"},"lendingType":{"id":"LNX","value":"Not classified"},"capitalCity":"Washington D.C.","longitude":"-77.032","latitude":"38.8895"},{"id":"VIR","iso2Code":"VI","name":"Virgin Islands (U.S.)","region":{"id":"LCN","value":"Latin America & Caribbean (all income levels)"},"adminregion":{"id":"","value":""},"incomeLevel":{"id":"NOC","value":"High income: nonOECD"},"lendingType":{"id":"LNX","value":"Not classified"},"capitalCity":"Charlotte Amalie","longitude":"-64.8963","latitude":"18.3358"}]]
