[{"page":1,"pages":1,"per_page":"500","total":105},[{"id":"AGO","iso2Code":"AO","name":"Angola","region":{"id":"SSF","value":"Sub-Saharan Africa (all income levels)"},"adminregion":{"id":"SSA","value":"Sub-Saharan Africa (developing only)"},"incomeLevel":{"id":"UMC","value":"Upper middle income"},"lendingType":{"id":"IBD","value":"IBRD"},"capitalCity":"Luanda","longitude":"13.242","latitude":"-8.81155"},{"id":"ALB","iso2Code":"AL","name":"Albania","region":{"id":"ECS","value":"Europe & Central Asia (all income levels)"},"adminregion":{"id":"ECA","value":"Europe & Central Asia (developing only)"},"incomeLevel":{"id":"UMC","value":"Upper middle income"},"lendingType":{"id":"IBD","value":"IBRD"},"capitalCity":"Tirane","longitude":"19.8172","latitude":"41.3317"},{"id":"ARG","iso2Code":"AR","name":"Argentina","region":{"id":"LCN","value":"Latin America & Caribbean (all income levels)"},"adminregion":{"id":"LAC","value":"Latin America & Caribbean (developing only)"},"incomeLevel":{"id":"UMC","value":"Upper middle income"},"lendingType":{"id":"IBD","value":"IBRD"},"capitalCity":"Buenos Aires","longitude":"-58.4173","latitude":"-34.6118"},{"id":"ARM","iso2Code":"AM","name":"Armenia","region":{"id":"ECS","value":"Europe & Central Asia (all income levels)"},"adminregion":{"id":"ECA","value":"Europe & Central Asia (developing only)"},"incomeLevel":{"id":"LMC","value":"Lower middle income"},"lendingType":{"id":"IBD","value":"IBRD"},"capitalCity":"Yerevan","longitude":"44.509","latitude":"40.1596"},{"id":"ASM","iso2Code":"AS","name":"American Samoa","region":{"id":"EAS","value":"East Asia & Pacific (all income levels)"},"adminregion":{"id":"EAP","value":"East Asia & Pacific (developing only)"},"incomeLevel":{"id":"UMC","value":"Upper middle income"},"lendingType":{"id":"LNX","value":"Not classified"},"capitalCity":"Pago Pago","longitude":"-170.691","latitude":"-14.2846"},{"id":"AZE","iso2Code":"AZ","name":"Azerbaijan","region":{"id":"ECS","value":"Europe & Central Asia (all income levels)"},"adminregion":{"id":"ECA","value":"Europe & Central Asia (developing only)"},"incomeLevel":{"id":"UMC","value":"Upper middle income"},"lendingType":{"id":"IBD","value":"IBRD"},"capitalCity":"Baku","longitude":"49.8932","latitude":"40.3834"},{"id":"BGR","iso2Code":"BG","name":"Bulgaria","region":{"id":"ECS","value":"Europe & Central Asia (all income levels)"},"adminregion":{"id":"ECA","value":"Europe & Central Asia (developing only)"},"incomeLevel":{"id":"UMC","value":"Upper middle income"},"lendingType":{"id":"IBD","value":"IBRD"},"capitalCity":"Sofia","longitude":"23.3238","latitude":"42.7105"},{"id":"BIH","iso2Code":"BA","name":"Bosnia and Herzegovina","region":{"id":"ECS","value":"Europe & Central Asia (all income levels)"},"adminregion":{"id":"ECA","value":"Europe & Central Asia (developing only)"},"incomeLevel":{"id":"UMC","value":"Upper middle income"},"lendingType":{"id":"IBD","value":"IBRD"},"capitalCity":"Sarajevo","longitude":"18.4214","latitude":"43.8607"},{"id":"BLR","iso2Code":"BY","name":"Belarus","region":{"id":"ECS","value":"Europe & Central Asia (all income levels)"},"adminregion":{"id":"ECA","value":"Europe & Central Asia (developing only)"},"incomeLevel":{"id":"UMC","value":"Upper middle income"},"lendingType":{"id":"IBD","value":"IBRD"},"capitalCity":"Minsk","longitude":"27.5766","latitude":"53.9678"},{"id":"BLZ","iso2Code":"BZ","name":"Belize","region":{"id":"LCN","value":"Latin America & Caribbean (all income levels)"},"adminregion":{"id":"LAC","value":"Latin America & Caribbean (developing only)"},"incomeLevel":{"id":"UMC","value":"Upper middle income"},"lendingType":{"id":"IBD","value":"IBRD"},"capitalCity":"Belmopan","longitude":"-88.7713","latitude":"17.2534"},{"id":"BOL","iso2Code":"BO","name":"Bolivia","region":{"id":"LCN","value":"Latin America & Caribbean (all income levels)"},"adminregion":{"id":"LAC","value":"Latin America & Caribbean (developing only)"},"incomeLevel":{"id":"LMC","value":"Lower middle income"},"lendingType":{"id":"IDB","value":"Blend"},"capitalCity":"La Paz","longitude":"-66.1936","latitude":"-13.9908"},{"id":"BRA","iso2Code":"BR","name":"Brazil","region":{"id":"LCN","value":"Latin America & Caribbean (all income levels)"},"adminregion":{"id":"LAC","value":"Latin America & Caribbean (developing only)"},"incomeLevel":{"id":"UMC","value":"Upper middle income"},"lendingType":{"id":"IBD","value":"IBRD"},"capitalCity":"Brasilia","longitude":"-47.9292","latitude":"-15.7801"},{"id":"BTN","iso2Code":"BT","name":"Bhutan","region":{"id":"SAS","value":"South Asia"},"adminregion":{"id":"SAS","value":"South Asia"},"incomeLevel":{"id":"LMC","value":"Lower middle income"},"lendingType":{"id":"IDX","value":"IDA"},"capitalCity":"Thimphu","longitude":"89.6177","latitude":"27.5768"},{"id":"BWA","iso2Code":"BW","name":"Botswana","region":{"id":"SSF","value":"Sub-Saharan Africa (all income levels)"},"adminregion":{"id":"SSA","value":"Sub-Saharan Africa (developing only)"},"incomeLevel":{"id":"UMC","value":"Upper middle income"},"lendingType":{"id":"IBD","value":"IBRD"},"capitalCity":"Gaborone","longitude":"25.9201","latitude":"-24.6544"},{"id":"CHN","iso2Code":"CN","name":"China","region":{"id":"EAS","value":"East Asia & Pacific (all income levels)"},"adminregion":{"id":"EAP","value":"East Asia & Pacific (developing only)"},"incomeLevel":{"id":"UMC","value":"Upper middle income"},"lendingType":{"id":"IBD","value":"IBRD"},"capitalCity":"Beijing","longitude":"116.286","latitude":"40.0495"},{"id":"CIV","iso2Code":"CI","name":"Cote d'Ivoire","region":{"id":"SSF","value":"Sub-Saharan Africa (all income levels)"},"adminregion":{"id":"SSA","value":"Sub-Saharan Africa (developing only)"},"incomeLevel":{"id":"LMC","value":"Lower middle income"},"lendingType":{"id":"IDX","value":"IDA"},"capitalCity":"Yamoussoukro","longitude":"-4.0305","latitude":"5.332"},{"id":"CMR","iso2Code":"CM","name":"Cameroon","region":{"id":"SSF","value":"Sub-Saharan Africa (all income levels)"},"adminregion":{"id":"SSA","value":"Sub-Saharan Africa (developing only)"},"incomeLevel":{"id":"LMC","value":"Lower middle income"},"lendingType":{"id":"IDB","value":"Blend"},"capitalCity":"Yaounde","longitude":"11.5174","latitude":"3.8721"},{"id":"COG","iso2Code":"CG","name":"Congo, Rep.","region":{"id":"SSF","value":"Sub-Saharan Africa (all income levels)"},"adminregion":{"id":"SSA","value":"Sub-Saharan Africa (developing only)"},"incomeLevel":{"id":"LMC","value":"Lower middle income"},"lendingType":{"id":"IDB","value":"Blend"},"capitalCity":"Brazzaville","longitude":"15.2662","latitude":"-4.2767"},{"id":"COL","iso2Code":"CO","name":"Colombia","region":{"id":"LCN","value":"Latin America & Caribbean (all income levels)"},"adminregion":{"id":"LAC","value":"Latin America & Caribbean (developing only)"},"incomeLevel":{"id":"UMC","value":"Upper middle income"},"lendingType":{"id":"IBD","value":"IBRD"},"capitalCity":"Bogota","longitude":"-74.082","latitude":"4.60987"},{"id":"CPV","iso2Code":"CV","name":"Cabo Verde","region":{"id":"SSF","value":"Sub-Saharan Africa (all income levels)"},"adminregion":{"id":"SSA","value":"Sub-Saharan Africa (developing only)"},"incomeLevel":{"id":"LMC","value":"Lower middle income"},"lendingType":{"id":"IDB","value":"Blend"},"capitalCity":"Praia","longitude":"-23.5087","latitude":"14.9218"},{"id":"CRI","iso2Code":"CR","name":"Costa Rica","region":{"id":"LCN","value":"Latin America & Caribbean (all income levels)"},"adminregion":{"id":"LAC","value":"Latin America & Caribbean (developing only)"},"incomeLevel":{"id":"UMC","value":"Upper middle income"},"lendingType":{"id":"IBD","value":"IBRD"},"capitalCity":"San Jose","longitude":"-84.0089","latitude":"9.63701"},{"id":"CUB","iso2Code":"CU","name":"Cuba","region":{"id":"LCN","value":"Latin America & Caribbean (all income levels)"},"adminregion":{"id":"LAC","value":"Latin America & Caribbean (developing only)"},"incomeLevel":{"id":"UMC","value":"Upper middle income"},"lendingType":{"id":"LNX","value":"Not classified"},"capitalCity":"Havana","longitude":"-82.3667","latitude":"23.1333"},{"id":"DJI","iso2Code":"DJ","name":"Djibouti","region":{"id":"MEA","value":"Middle East & North Africa (all income levels)"},"adminregion":{"id":"MNA","value":"Middle East & North Africa (developing only)"},"incomeLevel":{"id":"LMC","value":"Lower middle income"},"lendingType":{"id":"IDX","value":"IDA"},"capitalCity":"Djibouti","longitude":"43.1425","latitude":"11.5806"},{"id":"DMA","iso2Code":"DM","name":"Dominica","region":{"id":"LCN","value":"Latin America & Caribbean (all income levels)"},"adminregion":{"id":"LAC","value":"Latin America & Caribbean (developing only)"},"incomeLevel":{"id":"UMC","value":"Upper middle income"},"lendingType":{"id":"IDB","value":"Blend"},"capitalCity":"Roseau","longitude":"-61.39","latitude":"15.2976"},{"id":"DOM","iso2Code":"DO","name":"Dominican Republic","region":{"id":"LCN","value":"Latin America & Caribbean (all income levels)"},"adminregion":{"id":"LAC","value":"Latin America & Caribbean (developing only)"},"incomeLevel":{"id":"UMC","value":"Upper middle income"},"lendingType":{"id":"IBD","value":"IBRD"},"capitalCity":"Santo Domingo","longitude":"-69.8908","latitude":"18.479"},{"id":"DZA","iso2Code":"DZ","name":"Algeria","region":{"id":"MEA","value":"Middle East & North Africa (all income levels)"},"adminregion":{"id":"MNA","value":"Middle East & North Africa (developing only)"},"incomeLevel":{"id":"UMC","value":"Upper middle income"},"lendingType":{"id":"IBD","value":"IBRD"},"capitalCity":"Algiers","longitude":"3.05097","latitude":"36.7397"},{"id":"ECU","iso2Code":"EC","name":"Ecuador","region":{"id":"LCN","value":"Latin America & Caribbean (all income levels)"},"adminregion":{"id":"LAC","value":"Latin America & Caribbean (developing only)"},"incomeLevel":{"id":"UMC","value":"Upper middle income"},"lendingType":{"id":"IBD","value":"IBRD"},"capitalCity":"Quito","longitude":"-78.5243","latitude":"-0.229498"},{"id":"EGY","iso2Code":"EG","name":"Egypt, Arab Rep.","region":{"id":"MEA","value":"Middle East & North Africa (all income levels)"},"adminregion":{"id":"MNA","value":"Middle East & North Africa (developing only)"},"incomeLevel":{"id":"LMC","value":"Lower middle income"},"lendingType":{"id":"IBD","value":"IBRD"},"capitalCity":"Cairo","longitude":"31.2461","latitude":"30.0982"},{"id":"FJI","iso2Code":"FJ","name":"Fiji","region":{"id":"EAS","value":"East Asia & Pacific (all income levels)"},"adminregion":{"id":"EAP","value":"East Asia & Pacific (developing only)"},"incomeLevel":{"id":"UMC","value":"Upper middle income"},"lendingType":{"id":"IBD","value":"IBRD"},"capitalCity":"Suva","longitude":"178.399","latitude":"-18.1149"},{"id":"FSM","iso2Code":"FM","name":"Micronesia, Fed. Sts.","region":{"id":"EAS","value":"East Asia & Pacific (all income levels)"},"adminregion":{"id":"EAP","value":"East Asia & Pacific (developing only)"},"incomeLevel":{"id":"LMC","value":"Lower middle income"},"lendingType":{"id":"IDX","value":"IDA"},"capitalCity":"Palikir","longitude":"158.185","latitude":"6.91771"},{"id":"GAB","iso2Code":"GA","name":"Gabon","region":{"id":"SSF","value":"Sub-Saharan Africa (all income levels)"},"adminregion":{"id":"SSA","value":"Sub-Saharan Africa (developing only)"},"incomeLevel":{"id":"UMC","value":"Upper middle income"},"lendingType":{"id":"IBD","value":"IBRD"},"capitalCity":"Libreville","longitude":"9.45162","latitude":"0.38832"},{"id":"GEO","iso2Code":"GE","name":"Georgia","region":{"id":"ECS","value":"Europe & Central Asia (all income levels)"},"adminregion":{"id":"ECA","value":"Europe & Central Asia (developing only)"},"incomeLevel":{"id":"LMC","value":"Lower middle income"},"lendingType":{"id":"IBD","value":"IBRD"},"capitalCity":"Tbilisi","longitude":"44.793","latitude":"41.71"},{"id":"GHA","iso2Code":"GH","name":"Ghana","region":{"id":"SSF","value":"Sub-Saharan Africa (all income levels)"},"adminregion":{"id":"SSA","value":"Sub-Saharan Africa (developing only)"},"incomeLevel":{"id":"LMC","value":"Lower middle income"},"lendingType":{"id":"IDX","value":"IDA"},"capitalCity":"Accra","longitude":"-0.20795","latitude":"5.57045"},{"id":"GRD","iso2Code":"GD","name":"Grenada","region":{"id":"LCN","value":"Latin America & Caribbean (all income levels)"},"adminregion":{"id":"LAC","value":"Latin America & Caribbean (developing only)"},"incomeLevel":{"id":"UMC","value":"Upper middle income"},"lendingType":{"id":"IDB","value":"Blend"},"capitalCity":"Saint George's","longitude":"-61.7449","latitude":"12.0653"},{"id":"GTM","iso2Code":"GT","name":"Guatemala","region":{"id":"LCN","value":"Latin America & Caribbean (all income levels)"},"adminregion":{"id":"LAC","value":"Latin America & Caribbean (developing only)"},"incomeLevel":{"id":"LMC","value":"Lower middle income"},"lendingType":{"id":"IBD","value":"IBRD"},"capitalCity":"Guatemala City","longitude":"-90.5328","latitude":"14.6248"},{"id":"GUY","iso2Code":"GY","name":"Guyana","region":{"id":"LCN","value":"Latin America & Caribbean (all income levels)"},"adminregion":{"id":"LAC","value":"Latin America & Caribbean (developing only)"},"incomeLevel":{"id":"LMC","value":"Lower middle income"},"lendingType":{"id":"IDX","value":"IDA"},"capitalCity":"Georgetown","longitude":"-58.1548","latitude":"6.80461"},{"id":"HND","iso2Code":"HN","name":"Honduras","region":{"id":"LCN","value":"Latin America & Caribbean (all income levels)"},"adminregion":{"id":"LAC","value":"Latin America & Caribbean (developing only)"},"incomeLevel":{"id":"LMC","value":"Lower middle income"},"lendingType":{"id":"IDX","value":"IDA"},"capitalCity":"Tegucigalpa","longitude":"-87.4667","latitude":"15.1333"},{"id":"HUN","iso2Code":"HU","name":"Hungary","region":{"id":"ECS","value":"Europe & Central Asia (all income levels)"},"adminregion":{"id":"","value":""},"incomeLevel":{"id":"UMC","value":"Upper middle income"},"lendingType":{"id":"LNX","value":"Not classified"},"capitalCity":"Budapest","longitude":"19.0408","latitude":"47.4984"},{"id":"IDN","iso2Code":"ID","name":"Indonesia","region":{"id":"EAS","value":"East Asia & Pacific (all income levels)"},"adminregion":{"id":"EAP","value":"East Asia & Pacific (developing only)"},"incomeLevel":{"id":"LMC","value":"Lower middle income"},"lendingType":{"id":"IBD","value":"IBRD"},"capitalCity":"Jakarta","longitude":"106.83","latitude":"-6.19752"},{"id":"IND","iso2Code":"IN","name":"India","region":{"id":"SAS","value":"South Asia"},"adminregion":{"id":"SAS","value":"South Asia"},"incomeLevel":{"id":"LMC","value":"Lower middle income"},"lendingType":{"id":"IBD","value":"IBRD"},"capitalCity":"New Delhi","longitude":"77.225","latitude":"28.6353"},{"id":"IRN","iso2Code":"IR","name":"Iran, Islamic Rep.","region":{"id":"MEA","value":"Middle East & North Africa (all income levels)"},"adminregion":{"id":"MNA","value":"Middle East & North Africa (developing only)"},"incomeLevel":{"id":"UMC","value":"Upper middle income"},"lendingType":{"id":"IBD","value":"IBRD"},"capitalCity":"Tehran","longitude":"51.4447","latitude":"35.6878"},{"id":"IRQ","iso2Code":"IQ","name":"Iraq","region":{"id":"MEA","value":"Middle East & North Africa (all income levels)"},"adminregion":{"id":"MNA","value":"Middle East & North Africa (developing only)"},"incomeLevel":{"id":"UMC","value":"Upper middle income"},"lendingType":{"id":"IBD","value":"IBRD"},"capitalCity":"Baghdad","longitude":"44.394","latitude":"33.3302"},{"id":"JAM","iso2Code":"JM","name":"Jamaica","region":{"id":"LCN","value":"Latin America & Caribbean (all income levels)"},"adminregion":{"id":"LAC","value":"Latin America & Caribbean (developing only)"},"incomeLevel":{"id":"UMC","value":"Upper middle income"},"lendingType":{"id":"IBD","value":"IBRD"},"capitalCity":"Kingston","longitude":"-76.792","latitude":"17.9927"},{"id":"JOR","iso2Code":"JO","name":"Jordan","region":{"id":"MEA","value":"Middle East & North Africa (all income levels)"},"adminregion":{"id":"MNA","value":"Middle East & North Africa (developing only)"},"incomeLevel":{"id":"UMC","value":"Upper middle income"},"lendingType":{"id":"IBD","value":"IBRD"},"capitalCity":"Amman","longitude":"35.9263","latitude":"31.9497"},{"id":"KAZ","iso2Code":"KZ","name":"Kazakhstan","region":{"id":"ECS","value":"Europe & Central Asia (all income levels)"},"adminregion":{"id":"ECA","value":"Europe & Central Asia (developing only)"},"incomeLevel":{"id":"UMC","value":"Upper middle income"},"lendingType":{"id":"IBD","value":"IBRD"},"capitalCity":"Astana","longitude":"71.4382","latitude":"51.1879"},{"id":"KGZ","iso2Code":"KG","name":"Kyrgyz Republic","region":{"id":"ECS","value":"Europe & Central Asia (all income levels)"},"adminregion":{"id":"ECA","value":"Europe & Central Asia (developing only)"},"incomeLevel":{"id":"LMC","value":"Lower middle income"},"lendingType":{"id":"IDX","value":"IDA"},"capitalCity":"Bishkek","longitude":"74.6057","latitude":"42.8851"},{"id":"KIR","iso2Code":"KI","name":"Kiribati","region":{"id":"EAS","value":"East Asia & Pacific (all income levels)"},"adminregion":{"id":"EAP","value":"East Asia & Pacific (developing only)"},"incomeLevel":{"id":"LMC","value":"Lower middle income"},"lendingType":{"id":"IDX","value":"IDA"},"capitalCity":"Tarawa","longitude":"172.979","latitude":"1.32905"},{"id":"KSV","iso2Code":"KV","name":"Kosovo","region":{"id":"ECS","value":"Europe & Central Asia (all income levels)"},"adminregion":{"id":"ECA","value":"Europe & Central Asia (developing only)"},"incomeLevel":{"id":"LMC","value":"Lower middle income"},"lendingType":{"id":"IDX","value":"IDA"},"capitalCity":"Pristina","longitude":"20.926","latitude":"42.565"},{"id":"LAO","iso2Code":"LA","name":"Lao PDR","region":{"id":"EAS","value":"East Asia & Pacific (all income levels)"},"adminregion":{"id":"EAP","value":"East Asia & Pacific (developing only)"},"incomeLevel":{"id":"LMC","value":"Lower middle income"},"lendingType":{"id":"IDX","value":"IDA"},"capitalCity":"Vientiane","longitude":"102.177","latitude":"18.5826"},{"id":"LBN","iso2Code":"LB","name":"Lebanon","region":{"id":"MEA","value":"Middle East & North Africa (all income levels)"},"adminregion":{"id":"MNA","value":"Middle East & North Africa (developing only)"},"incomeLevel":{"id":"UMC","value":"Upper middle income"},"lendingType":{"id":"IBD","value":"IBRD"},"capitalCity":"Beirut","longitude":"35.5134","latitude":"33.8872"},{"id":"LBY","iso2Code":"LY","name":"Libya","region":{"id":"MEA","value":"Middle East & North Africa (all income levels)"},"adminregion":{"id":"MNA","value":"Middle East & North Africa (developing only)"},"incomeLevel":{"id":"UMC","value":"Upper middle income"},"lendingType":{"id":"IBD","value":"IBRD"},"capitalCity":"Tripoli","longitude":"13.1072","latitude":"32.8578"},{"id":"LCA","iso2Code":"LC","name":"St. Lucia","region":{"id":"LCN","value":"Latin America & Caribbean (all income levels)"},"adminregion":{"id":"LAC","value":"Latin America & Caribbean (developing only)"},"incomeLevel":{"id":"UMC","value":"Upper middle income"},"lendingType":{"id":"IDB","value":"Blend"},"capitalCity":"Castries","longitude":"-60.9832","latitude":"14"},{"id":"LKA","iso2Code":"LK","name":"Sri Lanka","region":{"id":"SAS","value":"South Asia"},"adminregion":{"id":"SAS","value":"South Asia"},"incomeLevel":{"id":"LMC","value":"Lower middle income"},"lendingType":{"id":"IDB","value":"Blend"},"capitalCity":"Colombo","longitude":"79.8528","latitude":"6.92148"},{"id":"LSO","iso2Code":"LS","name":"Lesotho","region":{"id":"SSF","value":"Sub-Saharan Africa (all income levels)"},"adminregion":{"id":"SSA","value":"Sub-Saharan Africa (developing only)"},"incomeLevel":{"id":"LMC","value":"Lower middle income"},"lendingType":{"id":"IDX","value":"IDA"},"capitalCity":"Maseru","longitude":"27.7167","latitude":"-29.5208"},{"id":"MAR","iso2Code":"MA","name":"Morocco","region":{"id":"MEA","value":"Middle East & North Africa (all income levels)"},"adminregion":{"id":"MNA","value":"Middle East & North Africa (developing only)"},"incomeLevel":{"id":"LMC","value":"Lower middle income"},"lendingType":{"id":"IBD","value":"IBRD"},"capitalCity":"Rabat","longitude":"-6.8704","latitude":"33.9905"},{"id":"MDA","iso2Code":"MD","name":"Moldova","region":{"id":"ECS","value":"Europe & Central Asia (all income levels)"},"adminregion":{"id":"ECA","value":"Europe & Central Asia (developing only)"},"incomeLevel":{"id":"LMC","value":"Lower middle income"},"lendingType":{"id":"IDB","value":"Blend"},"capitalCity":"Chisinau","longitude":"28.8497","latitude":"47.0167"},{"id":"MDV","iso2Code":"MV","name":"Maldives","region":{"id":"SAS","value":"South Asia"},"adminregion":{"id":"SAS","value":"South Asia"},"incomeLevel":{"id":"UMC","value":"Upper middle income"},"lendingType":{"id":"IDX","value":"IDA"},"capitalCity":"Male","longitude":"73.5109","latitude":"4.1742"},{"id":"MEX","iso2Code":"MX","name":"Mexico","region":{"id":"LCN","value":"Latin America & Caribbean (all income levels)"},"adminregion":{"id":"LAC","value":"Latin America & Caribbean (developing only)"},"incomeLevel":{"id":"UMC","value":"Upper middle income"},"lendingType":{"id":"IBD","value":"IBRD"},"capitalCity":"Mexico City","longitude":"-99.1276","latitude":"19.427"},{"id":"MHL","iso2Code":"MH","name":"Marshall Islands","region":{"id":"EAS","value":"East Asia & Pacific (all income levels)"},"adminregion":{"id":"EAP","value":"East Asia & Pacific (developing only)"},"incomeLevel":{"id":"UMC","value":"Upper middle income"},"lendingType":{"id":"IDX","value":"IDA"},"capitalCity":"Majuro","longitude":"171.135","latitude":"7.11046"},{"id":"MKD","iso2Code":"MK","name":"Macedonia, FYR","region":{"id":"ECS","value":"Europe & Central Asia (all income levels)"},"adminregion":{"id":"ECA","value":"Europe & Central Asia (developing only)"},"incomeLevel":{"id":"UMC","value":"Upper middle income"},"lendingType":{"id":"IBD","value":"IBRD"},"capitalCity":"Skopje","longitude":"21.4361","latitude":"42.0024"},{"id":"MNE","iso2Code":"ME","name":"Montenegro","region":{"id":"ECS","value":"Europe & Central Asia (all income levels)"},"adminregion":{"id":"ECA","value":"Europe & Central Asia (developing only)"},"incomeLevel":{"id":"UMC","value":"Upper middle income"},"lendingType":{"id":"IBD","value":"IBRD"},"capitalCity":"Podgorica","longitude":"19.2595","latitude":"42.4602"},{"id":"MNG","iso2Code":"MN","name":"Mongolia","region":{"id":"EAS","value":"East Asia & Pacific (all income levels)"},"adminregion":{"id":"EAP","value":"East Asia & Pacific (developing only)"},"incomeLevel":{"id":"LMC","value":"Lower middle income"},"lendingType":{"id":"IDB","value":"Blend"},"capitalCity":"Ulaanbaatar","longitude":"106.937","latitude":"47.9129"},{"id":"MRT","iso2Code":"MR","name":"Mauritania","region":{"id":"SSF","value":"Sub-Saharan Africa (all income levels)"},"adminregion":{"id":"SSA","value":"Sub-Saharan Africa (developing only)"},"incomeLevel":{"id":"LMC","value":"Lower middle income"},"lendingType":{"id":"IDX","value":"IDA"},"capitalCity":"Nouakchott","longitude":"-15.9824","latitude":"18.2367"},{"id":"MUS","iso2Code":"MU","name":"Mauritius","region":{"id":"SSF","value":"Sub-Saharan Africa (all income levels)"},"adminregion":{"id":"SSA","value":"Sub-Saharan Africa (developing only)"},"incomeLevel":{"id":"UMC","value":"Upper middle income"},"lendingType":{"id":"IBD","value":"IBRD"},"capitalCity":"Port Louis","longitude":"57.4977","latitude":"-20.1605"},{"id":"MYS","iso2Code":"MY","name":"Malaysia","region":{"id":"EAS","value":"East Asia & Pacific (all income levels)"},"adminregion":{"id":"EAP","value":"East Asia & Pacific (developing only)"},"incomeLevel":{"id":"UMC","value":"Upper middle income"},"lendingType":{"id":"IBD","value":"IBRD"},"capitalCity":"Kuala Lumpur","longitude":"101.684","latitude":"3.12433"},{"id":"NAM","iso2Code":"NA","name":"Namibia","region":{"id":"SSF","value":"Sub-Saharan Africa (all income levels)"},"adminregion":{"id":"SSA","value":"Sub-Saharan Africa (developing only)"},"incomeLevel":{"id":"UMC","value":"Upper middle income"},"lendingType":{"id":"IBD","value":"IBRD"},"capitalCity":"Windhoek","longitude":"17.0931","latitude":"-22.5648"},{"id":"NGA","iso2Code":"NG","name":"Nigeria","region":{"id":"SSF","value":"Sub-Saharan Africa (all income levels)"},"adminregion":{"id":"SSA","value":"Sub-Saharan Africa (developing only)"},"incomeLevel":{"id":"LMC","value":"Lower middle income"},"lendingType":{"id":"IDB","value":"Blend"},"capitalCity":"Abuja","longitude":"7.48906","latitude":"9.05804"},{"id":"NIC","iso2Code":"NI","name":"Nicaragua","region":{"id":"LCN","value":"Latin America & Caribbean (all income levels)"},"adminregion":{"id":"LAC","value":"Latin America & Caribbean (developing only)"},"incomeLevel":{"id":"LMC","value":"Lower middle income"},"lendingType":{"id":"IDX","value":"IDA"},"capitalCity":"Managua","longitude":"-86.2734","latitude":"12.1475"},{"id":"PAK","iso2Code":"PK","name":"Pakistan","region":{"id":"SAS","value":"South Asia"},"adminregion":{"id":"SAS","value":"South Asia"},"incomeLevel":{"id":"LMC","value":"Lower middle income"},"lendingType":{"id":"IDB","value":"Blend"},"capitalCity":"Islamabad","longitude":"72.8","latitude":"30.5167"},{"id":"PAN","iso2Code":"PA","name":"Panama","region":{"id":"LCN","value":"Latin America & Caribbean (all income levels)"},"adminregion":{"id":"LAC","value":"Latin America & Caribbean (developing only)"},"incomeLevel":{"id":"UMC","value":"Upper middle income"},"lendingType":{"id":"IBD","value":"IBRD"},"capitalCity":"Panama City","longitude":"-79.5188","latitude":"8.99427"},{"id":"PER","iso2Code":"PE","name":"Peru","region":{"id":"LCN","value":"Latin America & Caribbean (all income levels)"},"adminregion":{"id":"LAC","value":"Latin America & Caribbean (developing only)"},"incomeLevel":{"id":"UMC","value":"Upper middle income"},"lendingType":{"id":"IBD","value":"IBRD"},"capitalCity":"Lima","longitude":"-77.0465","latitude":"-12.0931"},{"id":"PHL","iso2Code":"PH","name":"Philippines","region":{"id":"EAS","value":"East Asia & Pacific (all income levels)"},"adminregion":{"id":"EAP","value":"East Asia & Pacific (developing only)"},"incomeLevel":{"id":"LMC","value":"Lower middle income"},"lendingType":{"id":"IBD","value":"IBRD"},"capitalCity":"Manila","longitude":"121.035","latitude":"14.5515"},{"id":"PLW","iso2Code":"PW","name":"Palau","region":{"id":"EAS","value":"East Asia & Pacific (all income levels)"},"adminregion":{"id":"EAP","value":"East Asia & Pacific (developing only)"},"incomeLevel":{"id":"UMC","value":"Upper middle income"},"lendingType":{"id":"IBD","value":"IBRD"},"capitalCity":"Koror","longitude":"134.479","latitude":"7.34194"},{"id":"PNG","iso2Code":"PG","name":"Papua New Guinea","region":{"id":"EAS","value":"East Asia & Pacific (all income levels)"},"adminregion":{"id":"EAP","value":"East Asia & Pacific (developing only)"},"incomeLevel":{"id":"LMC","value":"Lower middle income"},"lendingType":{"id":"IDB","value":"Blend"},"capitalCity":"Port Moresby","longitude":"147.194","latitude":"-9.47357"},{"id":"PRY","iso2Code":"PY","name":"Paraguay","region":{"id":"LCN","value":"Latin America & Caribbean (all income levels)"},"adminregion":{"id":"LAC","value":"Latin America & Caribbean (developing only)"},"incomeLevel":{"id":"LMC","value":"Lower middle income"},"lendingType":{"id":"IBD","value":"IBRD"},"capitalCity":"Asuncion","longitude":"-57.6362","latitude":"-25.3005"},{"id":"PSE","iso2Code":"PS","name":"West Bank and Gaza","region":{"id":"MEA","value":"Middle East & North Africa (all income levels)"},"adminregion":{"id":"MNA","value":"Middle East & North Africa (developing only)"},"incomeLevel":{"id":"LMC","value":"Lower middle income"},"lendingType":{"id":"LNX","value":"Not classified"},"capitalCity":"","longitude":"","latitude":""},{"id":"ROU","iso2Code":"RO","name":"Romania","region":{"id":"ECS","value":"Europe & Central Asia (all income levels)"},"adminregion":{"id":"ECA","value":"Europe & Central Asia (developing only)"},"incomeLevel":{"id":"UMC","value":"Upper middle income"},"lendingType":{"id":"IBD","value":"IBRD"},"capitalCity":"Bucharest","longitude":"26.0979","latitude":"44.4479"},{"id":"SDN","iso2Code":"SD","name":"Sudan","region":{"id":"SSF","value":"Sub-Saharan Africa (all income levels)"},"adminregion":{"id":"SSA","value":"Sub-Saharan Africa (developing only)"},"incomeLevel":{"id":"LMC","value":"Lower middle income"},"lendingType":{"id":"IDX","value":"IDA"},"capitalCity":"Khartoum","longitude":"32.5363","latitude":"15.5932"},{"id":"SEN","iso2Code":"SN","name":"Senegal","region":{"id":"SSF","value":"Sub-Saharan Africa (all income levels)"},"adminregion":{"id":"SSA","value":"Sub-Saharan Africa (developing only)"},"incomeLevel":{"id":"LMC","value":"Lower middle income"},"lendingType":{"id":"IDX","value":"IDA"},"capitalCity":"Dakar","longitude":"-17.4734","latitude":"14.7247"},{"id":"SLB","iso2Code":"SB","name":"Solomon Islands","region":{"id":"EAS","value":"East Asia & Pacific (all income levels)"},"adminregion":{"id":"EAP","value":"East Asia & Pacific (developing only)"},"incomeLevel":{"id":"LMC","value":"Lower middle income"},"lendingType":{"id":"IDX","value":"IDA"},"capitalCity":"Honiara","longitude":"159.949","latitude":"-9.42676"},{"id":"SLV","iso2Code":"SV","name":"El Salvador","region":{"id":"LCN","value":"Latin America & Caribbean (all income levels)"},"adminregion":{"id":"LAC","value":"Latin America & Caribbean (developing only)"},"incomeLevel":{"id":"LMC","value":"Lower middle income"},"lendingType":{"id":"IBD","value":"IBRD"},"capitalCity":"San Salvador","longitude":"-89.2073","latitude":"13.7034"},{"id":"SRB","iso2Code":"RS","name":"Serbia","region":{"id":"ECS","value":"Europe & Central Asia (all income levels)"},"adminregion":{"id":"ECA","value":"Europe & Central Asia (developing only)"},"incomeLevel":{"id":"UMC","value":"Upper middle income"},"lendingType":{"id":"IBD","value":"IBRD"},"capitalCity":"Belgrade","longitude":"20.4656","latitude":"44.8024"},{"id":"SSD","iso2Code":"SS","name":"South Sudan","region":{"id":"SSF","value":"Sub-Saharan Africa (all income levels)"},"adminregion":{"id":"SSA","value":"Sub-Saharan Africa (developing only)"},"incomeLevel":{"id":"LMC","value":"Lower middle income"},"lendingType":{"id":"IDX","value":"IDA"},"capitalCity":"Juba","longitude":"31.6","latitude":"4.85"},{"id":"STP","iso2Code":"ST","name":"Sao Tome and Principe","region":{"id":"SSF","value":"Sub-Saharan Africa (all income levels)"},"adminregion":{"id":"SSA","value":"Sub-Saharan Africa (developing only)"},"incomeLevel":{"id":"LMC","value":"Lower middle income"},"lendingType":{"id":"IDX","value":"IDA"},"capitalCity":"Sao Tome","longitude":"6.6071","latitude":"0.20618"},{"id":"SUR","iso2Code":"SR","name":"Suriname","region":{"id":"LCN","value":"Latin America & Caribbean (all income levels)"},"adminregion":{"id":"LAC","value":"Latin America & Caribbean (developing only)"},"incomeLevel":{"id":"UMC","value":"Upper middle income"},"lendingType":{"id":"IBD","value":"IBRD"},"capitalCity":"Paramaribo","longitude":"-55.1679","latitude":"5.8232"},{"id":"SWZ","iso2Code":"SZ","name":"Swaziland","region":{"id":"SSF","value":"Sub-Saharan Africa (all income levels)"},"adminregion":{"id":"SSA","value":"Sub-Saharan Africa (developing only)"},"incomeLevel":{"id":"LMC","value":"Lower middle income"},"lendingType":{"id":"IBD","value":"IBRD"},"capitalCity":"Mbabane","longitude":"31.4659","latitude":"-26.5225"},{"id":"SYC","iso2Code":"SC","name":"Seychelles","region":{"id":"SSF","value":"Sub-Saharan Africa (all income levels)"},"adminregion":{"id":"SSA","value":"Sub-Saharan Africa (developing only)"},"incomeLevel":{"id":"UMC","value":"Upper middle income"},"lendingType":{"id":"IBD","value":"IBRD"},"capitalCity":"Victoria","longitude":"55.4466","latitude":"-4.6309"},{"id":"SYR","iso2Code":"SY","name":"Syrian Arab Republic","region":{"id":"MEA","value":"Middle East & North Africa (all income levels)"},"adminregion":{"id":"MNA","value":"Middle East & North Africa (developing only)"},"incomeLevel":{"id":"LMC","value":"Lower middle income"},"lendingType":{"id":"IBD","value":"IBRD"},"capitalCity":"Damascus","longitude":"36.3119","latitude":"33.5146"},{"id":"THA","iso2Code":"TH","name":"Thailand","region":{"id":"EAS","value":"East Asia & Pacific (all income levels)"},"adminregion":{"id":"EAP","value":"East Asia & Pacific (developing only)"},"incomeLevel":{"id":"UMC","value":"Upper middle income"},"lendingType":{"id":"IBD","value":"IBRD"},"capitalCity":"Bangkok","longitude":"100.521","latitude":"13.7308"},{"id":"TKM","iso2Code":"TM","name":"Turkmenistan","region":{"id":"ECS","value":"Europe & Central Asia (all income levels)"},"adminregion":{"id":"ECA","value":"Europe & Central Asia (developing only)"},"incomeLevel":{"id":"UMC","value":"Upper middle income"},"lendingType":{"id":"IBD","value":"IBRD"},"capitalCity":"Ashgabat","longitude":"58.3794","latitude":"37.9509"},{"id":"TLS","iso2Code":"TL","name":"Timor-Leste","region":{"id":"EAS","value":"East Asia & Pacific (all income levels)"},"adminregion":{"id":"EAP","value":"East Asia & Pacific (developing only)"},"incomeLevel":{"id":"LMC","value":"Lower middle income"},"lendingType":{"id":"IDB","value":"Blend"},"capitalCity":"Dili","longitude":"125.567","latitude":"-8.56667"},{"id":"TON","iso2Code":"TO","name":"Tonga","region":{"id":"EAS","value":"East Asia & Pacific (all income levels)"},"adminregion":{"id":"EAP","value":"East Asia & Pacific (developing only)"},"incomeLevel":{"id":"UMC","value":"Upper middle income"},"lendingType":{"id":"IDX","value":"IDA"},"capitalCity":"Nuku'alofa","longitude":"-175.216","latitude":"-21.136"},{"id":"TUN","iso2Code":"TN","name":"Tunisia","region":{"id":"MEA","value":"Middle East & North Africa (all income levels)"},"adminregion":{"id":"MNA","value":"Middle East & North Africa (developing only)"},"incomeLevel":{"id":"UMC","value":"Upper middle income"},"lendingType":{"id":"IBD","value":"IBRD"},"capitalCity":"Tunis","longitude":"10.21","latitude":"36.7899"},{"id":"TUR","iso2Code":"TR","name":"Turkey","region":{"id":"ECS","value":"Europe & Central Asia (all income levels)"},"adminregion":{"id":"ECA","value":"Europe & Central Asia (developing only)"},"incomeLevel":{"id":"UMC","value":"Upper middle income"},"lendingType":{"id":"IBD","value":"IBRD"},"capitalCity":"Ankara","longitude":"32.3606","latitude":"39.7153"},{"id":"TUV","iso2Code":"TV","name":"Tuvalu","region":{"id":"EAS","value":"East Asia & Pacific (all income levels)"},"adminregion":{"id":"EAP","value":"East Asia & Pacific (developing only)"},"incomeLevel":{"id":"UMC","value":"Upper middle income"},"lendingType":{"id":"IDX","value":"IDA"},"capitalCity":"Funafuti","longitude":"179.089567","latitude":"-8.6314877"},{"id":"UKR","iso2Code":"UA","name":"Ukraine","region":{"id":"ECS","value":"Europe & Central Asia (all income levels)"},"adminregion":{"id":"ECA","value":"Europe & Central Asia (developing only)"},"incomeLevel":{"id":"LMC","value":"Lower middle income"},"lendingType":{"id":"IBD","value":"IBRD"},"capitalCity":"Kiev","longitude":"30.5038","latitude":"50.4536"},{"id":"UZB","iso2Code":"UZ","name":"Uzbekistan","region":{"id":"ECS","value":"Europe & Central Asia (all income levels)"},"adminregion":{"id":"ECA","value":"Europe & Central Asia (developing only)"},"incomeLevel":{"id":"LMC","value":"Lower middle income"},"lendingType":{"id":"IDB","value":"Blend"},"capitalCity":"Tashkent","longitude":"69.269","latitude":"41.3052"},{"id":"VCT","iso2Code":"VC","name":"St. Vincent and the Grenadines","region":{"id":"LCN","value":"Latin America & Caribbean (all income levels)"},"adminregion":{"id":"LAC","value":"Latin America & Caribbean (developing only)"},"incomeLevel":{"id":"UMC","value":"Upper middle income"},"lendingType":{"id":"IDB","value":"Blend"},"capitalCity":"Kingstown","longitude":"-61.2653","latitude":"13.2035"},{"id":"VEN","iso2Code":"VE","name":"Venezuela, RB","region":{"id":"LCN","value":"Latin America & Caribbean (all income levels)"},"adminregion":{"id":"LAC","value":"Latin America & Caribbean (developing only)"},"incomeLevel":{"id":"UMC","value":"Upper middle income"},"lendingType":{"id":"IBD","value":"IBRD"},"capitalCity":"Caracas","longitude":"-69.8371","latitude":"9.08165"},{"id":"VNM","iso2Code":"VN","name":"Vietnam","region":{"id":"EAS","value":"East Asia & Pacific (all income levels)"},"adminregion":{"id":"EAP","value":"East Asia & Pacific (developing only)"},"incomeLevel":{"id":"LMC","value":"Lower middle income"},"lendingType":{"id":"IDB","value":"Blend"},"capitalCity":"Hanoi","longitude":"105.825","latitude":"21.0069"},{"id":"VUT","iso2Code":"VU","name":"Vanuatu","region":{"id":"EAS","value":"East Asia & Pacific (all income levels)"},"adminregion":{"id":"EAP","value":"East Asia & Pacific (developing only)"},"incomeLevel":{"id":"LMC","value":"Lower middle income"},"lendingType":{"id":"IDX","value":"IDA"},"capitalCity":"Port-Vila","longitude":"168.321","latitude":"-17.7404"},{"id":"WSM","iso2Code":"WS","name":"Samoa","region":{"id":"EAS","value":"East Asia & Pacific (all income levels)"},"adminregion":{"id":"EAP","value":"East Asia & Pacific (developing only)"},"incomeLevel":{"id":"LMC","value":"Lower middle income"},"lendingType":{"id":"IDX","value":"IDA"},"capitalCity":"Apia","longitude":"-171.752","latitude":"-13.8314"},{"id":"YEM","iso2Code":"YE","name":"Yemen, Rep.","region":{"id":"MEA","value":"Middle East & North Africa (all income levels)"},"adminregion":{"id":"MNA","value":"Middle East & North Africa (developing only)"},"incomeLevel":{"id":"LMC","value":"Lower middle income"},"lendingType":{"id":"IDX","value":"IDA"},"capitalCity":"Sana'a","longitude":"44.2075","latitude":"15.352"},{"id":"ZAF","iso2Code":"ZA","name":"South Africa","region":{"id":"SSF","value":"Sub-Saharan Africa (all income levels)"},"adminregion":{"id":"SSA","value":"Sub-Saharan Africa (developing only)"},"incomeLevel":{"id":"UMC","value":"Upper middle income"},"lendingType":{"id":"IBD","value":"IBRD"},"capitalCity":"Pretoria","longitude":"28.1871","latitude":"-25.746"},{"id":"ZMB","iso2Code":"ZM","name":"Zambia","region":{"id":"SSF","value":"Sub-Saharan Africa (all income levels)"},"adminregion":{"id":"SSA","value":"Sub-Saharan Africa (developing only)"},"incomeLevel":{"id":"LMC","value":"Lower middle income"},"lendingType":{"id":"IDX","value":"IDA"},"capitalCity":"Lusaka","longitude":"28.2937","latitude":"-15.3982"}]]
